,City,Lat,Lng,Max Temp,Humidity,Cloudiness,Wind Speed,Country,Date
0,Ust-Kuyga,70.02,135.6,2.03,85,4,5.86,RU,04/17/20
1,Vaini,-21.2,-175.2,82.4,65,20,12.75,TO,04/17/20
2,Dāmghān,36.17,54.35,56.34,34,10,4.12,IR,04/17/20
3,Tegul'det,57.31,88.17,43.61,62,0,5.61,RU,04/17/20
4,Lata,40.16,-8.33,55.0,91,0,2.48,PT,04/17/20
5,Atuona,-9.8,-139.03,82.35,75,84,13.06,PF,04/17/20
6,Manado,1.49,124.85,87.8,66,40,10.29,ID,04/17/20
7,Clearwater,27.97,-82.8,73.99,94,1,3.71,US,04/17/20
8,Yellowknife,62.46,-114.35,26.6,63,90,9.17,CA,04/17/20
9,Rikitea,-23.12,-134.97,77.36,63,1,1.99,PF,04/17/20
10,Port Augusta,-32.5,137.77,66.99,55,19,6.93,AU,04/17/20
11,São João da Barra,-21.64,-41.05,72.48,83,96,11.12,BR,04/17/20
12,Nanortalik,60.14,-45.24,28.58,90,100,14.85,GL,04/17/20
13,Kapaa,22.08,-159.32,80.6,65,1,12.75,US,04/17/20
14,Mataura,-46.19,168.86,60.01,51,35,10.0,NZ,04/17/20
15,Jamestown,42.1,-79.24,32.0,100,90,3.36,US,04/17/20
16,Ushuaia,-54.8,-68.3,48.2,61,40,8.05,AR,04/17/20
17,Longyearbyen,78.22,15.64,28.4,100,75,9.17,SJ,04/17/20
18,New Norfolk,-42.78,147.06,55.0,71,93,1.99,AU,04/17/20
19,Oktyabr'skoye,43.06,44.74,46.18,44,100,1.86,RU,04/17/20
20,Busselton,-33.65,115.33,72.0,39,98,7.09,AU,04/17/20
21,Fortuna,40.6,-124.16,55.99,93,1,6.93,US,04/17/20
22,Kuching,1.55,110.33,73.4,100,40,4.38,MY,04/17/20
23,Dicabisagan,17.08,122.42,84.15,68,80,7.67,PH,04/17/20
24,Bethel,41.37,-73.41,37.0,93,90,5.82,US,04/17/20
25,Flinders,-34.58,150.86,72.0,44,0,7.0,AU,04/17/20
26,Tiksi,71.69,128.87,9.32,93,100,6.04,RU,04/17/20
27,Saint-Philippe,-21.36,55.77,75.2,83,20,12.75,RE,04/17/20
28,Yar-Sale,66.83,70.83,34.92,98,100,10.69,RU,04/17/20
29,São Félix do Xingu,-6.64,-51.99,70.65,92,100,1.28,BR,04/17/20
30,Kahului,20.89,-156.47,82.4,51,40,20.8,US,04/17/20
31,Stromness,58.97,-3.3,41.0,86,0,4.7,GB,04/17/20
32,Luangwa,-15.62,30.42,73.54,72,11,7.14,ZM,04/17/20
33,Jamshedpur,22.8,86.18,80.6,74,75,1.66,IN,04/17/20
34,Durban,-29.86,31.03,60.8,87,0,1.12,ZA,04/17/20
35,Castro,-24.79,-50.01,51.35,67,69,3.85,BR,04/17/20
36,Hermanus,-34.42,19.23,57.99,78,84,1.99,ZA,04/17/20
37,Punta Arenas,-53.15,-70.92,44.6,75,14,10.29,CL,04/17/20
38,Isangel,-19.55,169.27,84.2,70,75,3.36,VU,04/17/20
39,Port Alfred,-33.59,26.89,64.0,94,55,4.0,ZA,04/17/20
40,Sambava,-14.27,50.17,73.76,85,57,8.16,MG,04/17/20
41,Mar del Plata,-38.0,-57.56,61.0,87,0,9.17,AR,04/17/20
42,Bluff,-46.6,168.33,60.01,51,47,10.0,NZ,04/17/20
43,Barrow,71.29,-156.79,10.4,85,90,17.22,US,04/17/20
44,Bengkulu,-3.8,102.27,84.81,68,77,4.85,ID,04/17/20
45,Yemel'yanovo,56.17,92.68,44.6,52,9,6.71,RU,04/17/20
46,Tasiilaq,65.61,-37.64,35.6,69,73,18.34,GL,04/17/20
47,Caravelas,-17.71,-39.25,77.63,86,17,14.45,BR,04/17/20
48,Kysyl-Syr,63.9,122.76,12.88,87,7,9.13,RU,04/17/20
49,Khatanga,71.97,102.5,15.76,92,0,13.6,RU,04/17/20
50,Albany,42.6,-73.97,37.0,78,100,3.87,US,04/17/20
51,Sarkand,45.41,79.92,58.26,30,63,3.13,KZ,04/17/20
52,Øksfjord,70.24,22.35,35.01,80,93,8.99,NO,04/17/20
53,Cape Town,-33.93,18.42,50.0,81,55,2.24,ZA,04/17/20
54,Oistins,13.07,-59.53,78.8,74,75,17.22,BB,04/17/20
55,Belém de São Francisco,-8.75,-38.97,74.75,78,78,11.83,BR,04/17/20
56,Thompson,55.74,-97.86,30.2,92,90,21.92,CA,04/17/20
57,Fort Nelson,58.81,-122.7,48.2,31,20,4.7,CA,04/17/20
58,Hofn,64.25,-15.21,42.24,83,100,10.0,IS,04/17/20
59,Aswān,24.09,32.91,63.93,45,60,8.16,EG,04/17/20
60,Provideniya,64.38,-173.3,26.51,95,100,20.11,RU,04/17/20
61,Van Buren,35.44,-94.35,48.2,66,90,10.29,US,04/17/20
62,Carutapera,-1.2,-46.02,76.77,90,100,6.82,BR,04/17/20
63,Kavieng,-2.57,150.8,82.98,71,60,4.41,PG,04/17/20
64,Krasnosel'kup,65.7,82.47,35.85,98,100,17.87,RU,04/17/20
65,Lompoc,34.64,-120.46,57.2,82,90,3.36,US,04/17/20
66,Hobart,-42.88,147.33,55.99,47,40,10.29,AU,04/17/20
67,Yudong,29.39,106.52,64.0,93,90,13.42,CN,04/17/20
68,Smoky Lake,54.12,-112.47,35.6,74,100,11.41,CA,04/17/20
69,Margate,51.38,1.39,48.0,96,99,8.01,GB,04/17/20
70,Roebourne,-20.78,117.13,94.21,32,84,3.38,AU,04/17/20
71,Lubango,-14.92,13.49,59.11,53,90,1.28,AO,04/17/20
72,Rodino,52.5,80.25,53.19,56,0,8.08,RU,04/17/20
73,Hurghada,27.26,33.81,64.4,52,84,9.17,EG,04/17/20
74,Pangai,-19.8,-174.35,80.6,78,20,12.75,TO,04/17/20
75,Oppdal,62.59,9.69,20.19,81,78,3.69,NO,04/17/20
76,Kulachi,31.93,70.46,70.48,55,0,3.6,PK,04/17/20
77,Payakumbuh,-0.22,100.63,84.02,55,51,2.37,ID,04/17/20
78,Kaitangata,-46.28,169.85,55.99,80,96,20.0,NZ,04/17/20
79,Vao,-22.67,167.48,74.79,69,51,9.75,NC,04/17/20
80,Lagoa,39.05,-27.98,60.37,72,58,11.7,PT,04/17/20
81,Hasaki,35.73,140.83,57.2,100,75,28.86,JP,04/17/20
82,Cabo San Lucas,22.89,-109.91,66.99,72,5,16.11,MX,04/17/20
83,Rafsanjān,30.41,55.99,58.39,38,1,1.61,IR,04/17/20
84,Zambezi,-13.54,23.1,63.73,65,17,5.55,ZM,04/17/20
85,Kavaratti,10.57,72.64,84.72,68,96,3.78,IN,04/17/20
86,Pevek,69.7,170.31,8.28,93,23,9.26,RU,04/17/20
87,Ribeira Grande,38.52,-28.7,60.24,80,67,12.75,PT,04/17/20
88,Prainha,-1.8,-53.48,72.95,98,100,0.98,BR,04/17/20
89,Tilichiki,60.47,166.1,16.02,91,35,16.84,RU,04/17/20
90,Alice Springs,-23.7,133.88,78.8,29,40,10.29,AU,04/17/20
91,Anna Paulowna,52.86,4.83,46.0,81,90,13.87,NL,04/17/20
92,Tadine,-21.55,167.88,78.69,60,36,9.44,NC,04/17/20
93,Labuhan,-6.88,112.21,87.76,67,45,3.74,ID,04/17/20
94,Kalmunai,7.42,81.82,85.53,67,81,8.61,LK,04/17/20
95,Marsh Harbour,26.54,-77.06,76.42,86,83,15.86,BS,04/17/20
96,Atikokan,48.76,-91.62,31.64,77,17,7.76,CA,04/17/20
97,Mikumi,-7.4,36.98,68.65,80,52,3.87,TZ,04/17/20
98,Grand Baie,-20.02,57.58,75.2,83,75,8.05,MU,04/17/20
99,Rivière-du-Loup,47.83,-69.53,28.67,91,0,6.91,CA,04/17/20
100,Saint Paul Harbor,57.79,-152.41,50.0,76,90,13.87,US,04/17/20
101,Laas,46.62,10.7,48.0,52,93,1.57,IT,04/17/20
102,Khandyga,62.67,135.6,12.58,84,69,4.74,RU,04/17/20
103,Bredasdorp,-34.53,20.04,57.99,87,100,3.36,ZA,04/17/20
104,Tocopilla,-22.09,-70.2,72.0,39,8,5.26,CL,04/17/20
105,Sistranda,63.73,8.83,41.0,86,75,13.87,NO,04/17/20
106,Northam,51.03,-4.22,50.0,92,100,3.0,GB,04/17/20
107,San Cristobal,7.77,-72.22,68.23,54,88,1.72,VE,04/17/20
108,Codrington,-38.27,141.97,58.51,64,100,7.0,AU,04/17/20
109,Tessalit,20.2,1.01,81.27,17,0,6.76,ML,04/17/20
110,Berlevåg,70.86,29.09,35.06,93,100,25.61,NO,04/17/20
111,Monte Alegre,-2.01,-54.07,73.11,98,100,1.39,BR,04/17/20
112,Garden City,42.33,-83.33,35.6,86,90,4.85,US,04/17/20
113,Fremont,37.55,-121.99,57.99,67,1,11.41,US,04/17/20
114,Wanning,18.8,110.4,80.08,81,98,8.3,CN,04/17/20
115,Te Anau,-45.42,167.72,51.21,56,49,8.61,NZ,04/17/20
116,Puerto Ayora,-0.74,-90.35,75.99,94,82,1.99,EC,04/17/20
117,Chaplygin,53.24,39.96,30.2,92,21,8.95,RU,04/17/20
118,Grand Gaube,-20.01,57.66,75.2,83,75,8.05,MU,04/17/20
119,Qaanaaq,77.48,-69.36,11.48,80,13,8.03,GL,04/17/20
120,Kapoeta,4.77,33.59,78.21,52,100,6.89,SS,04/17/20
121,Mount Gambier,-37.83,140.77,60.8,63,75,4.7,AU,04/17/20
122,Kompaniyivka,48.25,32.21,39.6,72,36,6.78,UA,04/17/20
123,Nemuro,43.32,145.57,59.0,26,20,11.41,JP,04/17/20
124,Ishigaki,24.34,124.16,78.8,88,75,9.17,JP,04/17/20
125,Hilo,19.73,-155.09,80.6,51,20,6.93,US,04/17/20
126,Genhe,50.78,121.52,56.57,26,45,6.73,CN,04/17/20
127,Ures,29.43,-110.4,73.99,23,5,1.99,MX,04/17/20
128,Port Blair,11.67,92.75,83.5,71,61,3.38,IN,04/17/20
129,Verkhnyaya Inta,65.98,60.31,34.7,82,83,8.59,RU,04/17/20
130,Avarua,-21.21,-159.78,80.6,69,10,4.7,CK,04/17/20
131,Olafsvik,64.89,-23.71,42.3,84,100,28.05,IS,04/17/20
132,Worland,44.02,-107.96,46.99,45,1,8.05,US,04/17/20
133,Kirando,-7.42,30.6,73.51,62,100,6.6,TZ,04/17/20
134,Vila,42.03,-8.16,51.8,100,40,6.93,PT,04/17/20
135,La Primavera,5.49,-70.41,85.35,46,80,2.73,CO,04/17/20
136,Ābādān,30.34,48.3,75.2,57,75,4.7,IR,04/17/20
137,Kabala,9.58,-11.55,75.74,73,100,5.7,SL,04/17/20
138,Kundiawa,-6.02,144.97,79.59,36,98,0.43,PG,04/17/20
139,Butaritari,3.07,172.79,82.33,80,82,14.81,KI,04/17/20
140,Turukhansk,65.82,87.98,39.02,87,71,10.76,RU,04/17/20
141,Saskylakh,71.92,114.08,8.71,88,0,4.99,RU,04/17/20
142,Lukovetskiy,64.3,41.92,32.0,98,90,5.95,RU,04/17/20
143,Puerto Cabezas,14.04,-83.39,76.77,84,19,4.88,NI,04/17/20
144,Sitka,57.05,-135.33,50.0,76,75,3.36,US,04/17/20
145,Cidreira,-30.18,-50.21,64.29,87,4,2.15,BR,04/17/20
146,Chokurdakh,70.63,147.92,-3.08,90,50,4.85,RU,04/17/20
147,Kalmar,56.66,16.36,39.0,76,36,5.82,SE,04/17/20
148,Guerrero Negro,27.98,-114.06,61.3,77,0,16.4,MX,04/17/20
149,Murray Bridge,-35.12,139.27,64.0,70,100,5.99,AU,04/17/20
150,Road Town,18.42,-64.62,79.0,80,0,14.0,VG,04/17/20
151,Kumluca,36.37,30.29,61.2,54,51,4.03,TR,04/17/20
152,North Ogden,41.31,-111.96,50.0,25,1,4.7,US,04/17/20
153,Arraial do Cabo,-22.97,-42.03,73.8,70,73,10.36,BR,04/17/20
154,Biak,-0.91,122.88,84.0,70,84,1.12,ID,04/17/20
155,Mitú,1.2,-70.17,72.16,91,65,2.24,CO,04/17/20
156,Yeppoon,-23.13,150.73,91.4,41,0,8.05,AU,04/17/20
157,Mwinilunga,-11.74,24.43,61.2,64,73,5.35,ZM,04/17/20
158,Kuressaare,58.25,22.5,39.2,69,0,9.17,EE,04/17/20
159,Kulykivka,51.37,31.65,33.31,86,0,8.86,UA,04/17/20
160,Dikson,73.51,80.55,25.12,97,91,14.9,RU,04/17/20
161,Severo-Kuril'sk,50.68,156.12,32.92,92,8,12.95,RU,04/17/20
162,Panevezys,55.73,24.35,32.0,90,0,11.41,LT,04/17/20
163,Bathsheba,13.22,-59.52,78.8,74,75,17.22,BB,04/17/20
164,Samarai,-10.62,150.67,85.17,70,99,8.34,PG,04/17/20
165,Itaueira,-7.6,-43.03,72.36,87,100,2.64,BR,04/17/20
166,Hithadhoo,-0.6,73.08,83.88,79,10,14.45,MV,04/17/20
167,Chifeng,42.27,118.96,60.55,24,0,3.4,CN,04/17/20
168,Asunción Nochixtlán,17.47,-97.23,63.66,43,47,2.04,MX,04/17/20
169,Ástros,37.4,22.73,55.0,68,9,2.04,GR,04/17/20
170,Nurota,40.56,65.69,55.4,82,6,4.7,UZ,04/17/20
171,Tezu,27.92,96.17,85.42,36,24,2.98,IN,04/17/20
172,Oktyabr'skiy,54.48,53.47,37.72,78,99,13.51,RU,04/17/20
173,Talnakh,69.49,88.4,30.2,86,97,24.61,RU,04/17/20
174,Chapais,49.78,-74.85,21.2,92,75,2.24,CA,04/17/20
175,Lebu,-37.62,-73.65,60.78,94,100,3.69,CL,04/17/20
176,Valparaíso,-33.04,-71.63,55.4,93,11,8.05,CL,04/17/20
177,Nikolskoye,59.7,30.79,37.4,89,75,13.42,RU,04/17/20
178,Shelburne,44.08,-80.2,30.99,71,84,3.51,CA,04/17/20
179,Arlit,18.74,7.39,80.11,13,0,5.23,NE,04/17/20
180,Malatya Province,38.5,38.0,41.0,93,0,1.77,TR,04/17/20
181,Letlhakane,-21.42,25.58,65.75,64,1,12.35,BW,04/17/20
182,Umm Kaddadah,13.6,26.69,72.55,18,79,13.2,SD,04/17/20
183,Cody,44.53,-109.06,48.2,23,1,13.87,US,04/17/20
184,Hornepayne,49.21,-84.77,21.79,93,8,8.23,CA,04/17/20
185,Zhigansk,66.77,123.37,3.07,89,0,15.99,RU,04/17/20
186,Cerrito,6.84,-72.69,49.21,45,76,1.14,CO,04/17/20
187,Union,40.63,-74.27,46.4,75,90,5.95,US,04/17/20
188,Karaton,-6.34,106.1,87.8,66,20,8.05,ID,04/17/20
189,Dukat,62.55,155.55,5.18,82,100,8.32,RU,04/17/20
190,Juba,4.85,31.58,75.78,63,99,4.65,SS,04/17/20
191,Havøysund,71.0,24.66,35.6,74,75,35.57,NO,04/17/20
192,Katsuura,35.13,140.3,62.6,93,75,18.34,JP,04/17/20
193,Saint-Pierre,-21.34,55.48,75.2,83,20,12.75,RE,04/17/20
194,Rūdsar,37.14,50.29,50.0,100,20,6.91,IR,04/17/20
195,Vila Velha,-20.33,-40.29,75.2,83,75,13.87,BR,04/17/20
196,Souillac,-20.52,57.52,75.2,83,75,8.05,MU,04/17/20
197,Upernavik,72.79,-56.15,21.58,90,98,4.09,GL,04/17/20
198,Camopi,3.17,-52.32,73.87,94,94,1.48,GF,04/17/20
199,Santa Ana,33.75,-117.87,61.0,76,29,1.01,US,04/17/20
200,Aksarka,66.56,67.8,32.85,97,97,7.14,RU,04/17/20
201,Carnarvon,-24.87,113.63,80.6,74,95,10.29,AU,04/17/20
202,Buraidah,26.33,43.98,68.0,49,20,6.93,SA,04/17/20
203,Airai,-8.93,125.41,73.24,52,94,4.32,TL,04/17/20
204,Vestmannaeyjar,63.44,-20.27,44.1,84,100,31.09,IS,04/17/20
205,Bariloche,-41.15,-71.31,59.0,87,40,11.41,AR,04/17/20
206,Somerset West,-34.08,18.82,57.0,81,75,2.24,ZA,04/17/20
207,Pisco,-13.7,-76.22,71.01,77,3,12.75,PE,04/17/20
208,Saint George,37.1,-113.58,69.8,22,75,9.17,US,04/17/20
209,Mahébourg,-20.41,57.7,75.2,83,75,8.05,MU,04/17/20
210,Lorengau,-2.02,147.27,84.31,69,59,3.89,PG,04/17/20
211,Latung,5.5,120.88,83.03,73,33,1.95,PH,04/17/20
212,Mukilteo,47.94,-122.3,62.01,44,90,4.7,US,04/17/20
213,Polovinnoye,54.79,65.99,47.59,61,57,17.09,RU,04/17/20
214,Mutoko,-17.4,32.23,58.37,71,2,1.92,ZW,04/17/20
215,Mago,53.25,140.18,31.12,91,100,9.33,RU,04/17/20
216,College,64.86,-147.8,44.01,70,90,2.37,US,04/17/20
217,Sept-Îles,50.2,-66.38,27.0,45,40,5.82,CA,04/17/20
218,St. George's,12.06,-61.75,79.47,78,98,15.5,GD,04/17/20
219,Saint-Augustin,51.23,-58.65,23.63,90,100,9.22,CA,04/17/20
220,Ajdabiya,30.76,20.23,58.87,73,0,9.08,LY,04/17/20
221,Darhan,49.49,105.92,48.81,38,32,5.99,MN,04/17/20
222,Luanda,-8.84,13.23,75.2,94,75,8.05,AO,04/17/20
223,Sémbé,1.65,14.58,72.64,82,98,4.34,CG,04/17/20
224,Barcelos,41.54,-8.62,55.4,93,75,5.82,PT,04/17/20
225,Farafangana,-22.82,47.83,74.57,78,39,5.68,MG,04/17/20
226,Forsytheganj,52.63,29.73,31.48,91,0,9.46,BY,04/17/20
227,Vigia,-0.86,-48.14,77.0,94,40,1.12,BR,04/17/20
228,San Miguel,13.48,-88.18,81.0,57,39,1.97,SV,04/17/20
229,Lātehār,23.75,84.5,95.92,17,0,5.19,IN,04/17/20
230,Kiboga,0.92,31.77,63.7,71,100,0.67,UG,04/17/20
231,Golden Gate,26.19,-81.7,80.6,94,40,5.82,US,04/17/20
232,Baykit,61.67,96.37,35.06,80,95,4.0,RU,04/17/20
233,Mayumba,-3.43,10.66,79.7,84,96,5.32,GA,04/17/20
234,Vittoria,36.95,14.53,57.99,93,90,2.24,IT,04/17/20
235,Seoul,37.57,126.98,60.8,58,1,6.24,KR,04/17/20
236,Jaraguá,-15.76,-49.33,68.0,94,40,4.7,BR,04/17/20
237,Calabozo,8.92,-67.43,85.48,45,38,7.43,VE,04/17/20
238,Ancud,-41.87,-73.82,55.4,100,90,8.05,CL,04/17/20
239,Laguna,38.42,-121.42,59.0,62,1,12.75,US,04/17/20
240,Cayenne,4.93,-52.33,75.2,100,75,6.6,GF,04/17/20
241,Coquimbo,-29.95,-71.34,57.2,93,0,4.7,CL,04/17/20
242,Vardø,70.37,31.11,32.49,97,100,26.04,NO,04/17/20
243,Kuril'sk,45.23,147.88,39.74,69,0,7.87,RU,04/17/20
244,Weatherford,32.76,-97.8,50.0,87,43,5.88,US,04/17/20
245,Esperance,-33.87,121.9,77.0,36,90,19.46,AU,04/17/20
246,Faanui,-16.48,-151.75,82.85,67,100,3.98,PF,04/17/20
247,Pachino,36.72,15.09,57.99,93,90,2.24,IT,04/17/20
248,Birin,26.89,88.07,65.7,44,20,4.29,NP,04/17/20
249,Sabzawār,36.21,57.68,58.26,36,98,7.34,IR,04/17/20
250,Buala,-8.14,159.59,82.74,76,94,5.41,SB,04/17/20
251,Port Lincoln,-34.73,135.87,65.41,60,39,12.44,AU,04/17/20
252,Angoche,-16.23,39.91,77.54,80,0,3.85,MZ,04/17/20
253,Nelson Bay,-32.72,152.15,71.6,37,97,6.93,AU,04/17/20
254,Carhuamayo,-10.92,-76.03,34.18,26,81,3.85,PE,04/17/20
255,La Ronge,55.1,-105.28,39.2,64,75,16.11,CA,04/17/20
256,Ferrol,43.48,-8.24,55.0,84,2,4.0,ES,04/17/20
257,Tazovsky,67.47,78.7,35.6,99,100,17.63,RU,04/17/20
258,Port Elizabeth,-33.92,25.57,60.8,87,20,6.93,ZA,04/17/20
259,Shenjiamen,29.96,122.3,60.67,73,86,14.14,CN,04/17/20
260,Adilcevaz,38.8,42.73,39.2,80,1,1.95,TR,04/17/20
261,Fairbanks,64.84,-147.72,46.0,75,90,2.42,US,04/17/20
262,Sigli,5.38,95.96,82.92,71,74,1.63,ID,04/17/20
263,Tuktoyaktuk,69.45,-133.04,15.8,85,90,14.99,CA,04/17/20
264,Micheweni,-4.97,39.83,83.34,76,100,9.8,TZ,04/17/20
265,Praia,14.92,-23.51,71.6,68,20,16.11,CV,04/17/20
266,Vila Franca do Campo,37.72,-25.43,57.2,82,20,4.7,PT,04/17/20
267,Guilin,25.28,110.29,69.8,100,90,2.24,CN,04/17/20
268,Peniche,39.36,-9.38,53.01,93,6,5.79,PT,04/17/20
269,Port Hardy,50.7,-127.42,51.8,76,75,6.93,CA,04/17/20
270,Klaksvík,62.23,-6.59,41.0,86,0,10.29,FO,04/17/20
271,Kattivākkam,13.22,80.32,86.0,79,20,6.93,IN,04/17/20
272,Lavrentiya,65.58,-171.0,23.23,97,100,13.22,RU,04/17/20
273,Kelvington,52.17,-103.53,34.23,81,100,13.98,CA,04/17/20
274,Beringovskiy,63.05,179.32,20.68,97,100,23.11,RU,04/17/20
275,Progreso,21.28,-89.67,93.2,32,20,13.87,MX,04/17/20
276,Geraldton,-28.77,114.6,82.4,42,58,4.7,AU,04/17/20
277,Carson City,39.16,-119.77,51.8,53,90,6.93,US,04/17/20
278,Mezen',65.85,44.24,32.86,96,100,6.29,RU,04/17/20
279,Avera,33.19,-82.53,62.6,72,1,4.7,US,04/17/20
280,Sabang,5.89,95.32,83.68,69,93,3.49,ID,04/17/20
281,Laranjeiras do Sul,-25.41,-52.42,50.74,68,23,2.89,BR,04/17/20
282,Atambua,-9.11,124.89,82.81,67,67,2.71,ID,04/17/20
283,Marquette,46.53,-87.63,27.0,82,0,6.93,US,04/17/20
284,Okhotsk,59.38,143.3,22.78,92,100,5.7,RU,04/17/20
285,Diego de Almagro,-26.37,-70.05,58.35,46,0,0.43,CL,04/17/20
286,Freeport,40.66,-73.58,46.4,65,90,9.17,US,04/17/20
287,Kiryat Gat,31.61,34.76,61.0,76,0,2.51,IL,04/17/20
288,Half Moon Bay,37.46,-122.43,55.99,76,90,9.17,US,04/17/20
289,Kiama,-34.68,150.87,71.6,28,0,3.36,AU,04/17/20
290,Karlovasi,37.79,26.7,48.2,81,61,4.45,GR,04/17/20
291,Padang,-0.95,100.35,87.15,62,38,0.49,ID,04/17/20
292,Fujin,47.26,132.03,62.02,30,44,2.15,CN,04/17/20
293,Arrondissement de Saint-Denis,48.92,2.33,62.6,63,98,11.41,FR,04/17/20
294,Bambous Virieux,-20.34,57.76,75.2,83,75,8.05,MU,04/17/20
295,Zemio,5.03,25.14,73.42,75,100,8.01,CF,04/17/20
296,Narsaq,60.92,-46.05,28.4,68,69,10.29,GL,04/17/20
297,Bonthe,7.53,-12.51,80.01,84,100,8.81,SL,04/17/20
298,Sangar,63.92,127.47,18.64,77,0,2.71,RU,04/17/20
299,Sayyan,15.17,44.32,58.98,40,27,1.9,YE,04/17/20
300,Yerbogachën,61.28,108.01,21.92,84,85,10.89,RU,04/17/20
301,Majene,-3.54,118.97,87.89,63,36,4.03,ID,04/17/20
302,Constitución,-35.33,-72.42,59.63,89,1,8.7,CL,04/17/20
303,Keflavik,64.0,-22.56,42.8,87,90,27.51,IS,04/17/20
304,Olinda,-8.01,-34.86,78.8,94,40,3.36,BR,04/17/20
305,Shumskiy,54.83,99.13,36.03,77,100,8.7,RU,04/17/20
306,Santarém,-2.44,-54.71,78.8,94,40,6.93,BR,04/17/20
307,Husavik,66.04,-17.34,42.8,73,0,28.86,IS,04/17/20
308,Thouars,46.98,-0.22,55.99,39,7,1.99,FR,04/17/20
309,Acarí,-15.43,-74.62,73.11,62,65,4.36,PE,04/17/20
310,Makakilo City,21.35,-158.09,84.2,45,1,6.93,US,04/17/20
311,Leningradskiy,69.38,178.42,11.07,94,100,10.42,RU,04/17/20
312,Mulegé,26.88,-111.98,71.19,40,0,3.6,MX,04/17/20
313,City of San Pedro,14.35,121.02,91.99,59,40,6.93,PH,04/17/20
314,Ilulissat,69.22,-51.1,26.6,79,100,4.7,GL,04/17/20
315,Thinadhoo,0.53,72.93,84.79,75,20,8.84,MV,04/17/20
316,Bowen,-20.02,148.23,87.8,55,90,5.82,AU,04/17/20
317,Sarangani,5.4,125.46,83.03,76,24,19.73,PH,04/17/20
318,Adrar,20.5,-10.07,83.28,22,80,10.76,MR,04/17/20
319,Necochea,-38.55,-58.74,61.0,84,2,10.0,AR,04/17/20
320,Sola,-13.88,167.55,82.06,75,89,9.42,VU,04/17/20
321,Kaliua,-5.06,31.79,64.92,69,96,5.21,TZ,04/17/20
322,Tornio,65.85,24.15,33.8,64,100,14.99,FI,04/17/20
323,Pacific Grove,36.62,-121.92,57.2,67,90,4.7,US,04/17/20
324,Clyde River,70.47,-68.59,6.8,84,90,13.87,CA,04/17/20
325,Meulaboh,4.14,96.13,83.88,71,97,3.13,ID,04/17/20
326,Ol'ga,43.74,135.29,49.21,48,70,5.1,RU,04/17/20
327,Chui,-33.7,-53.46,60.62,83,2,5.37,UY,04/17/20
328,Lüderitz,-26.65,15.16,53.6,87,8,2.24,NA,04/17/20
329,Al Bardīyah,31.76,25.09,57.2,78,2,5.19,LY,04/17/20
330,Ponta Delgada,37.73,-25.67,57.2,82,20,4.7,PT,04/17/20
331,Porto-Novo,6.5,2.6,84.2,83,40,11.41,BJ,04/17/20
332,Tautira,-17.73,-149.15,86.0,70,95,5.82,PF,04/17/20
333,Esim,4.87,-2.24,80.69,86,100,9.06,GH,04/17/20
334,Loei,17.42,101.5,86.0,74,20,2.24,TH,04/17/20
335,Ostrovnoy,68.05,39.51,31.59,98,100,12.8,RU,04/17/20
336,Dingle,11.0,122.67,89.1,58,39,13.56,PH,04/17/20
337,Birao,10.28,22.79,72.23,15,64,5.23,CF,04/17/20
338,Price,39.6,-110.81,50.0,25,20,3.36,US,04/17/20
339,Nara,34.69,135.8,64.0,77,75,11.41,JP,04/17/20
340,Tuatapere,-46.13,167.68,60.01,51,34,10.0,NZ,04/17/20
341,Kruisfontein,-34.0,24.73,55.69,84,72,3.2,ZA,04/17/20
342,East London,-33.02,27.91,66.22,84,12,11.32,ZA,04/17/20
343,Sinnamary,5.38,-52.95,79.27,84,94,12.19,GF,04/17/20
344,Boueni,-12.9,45.08,78.8,83,0,3.36,YT,04/17/20
345,Zopilotepe,14.6,-86.27,74.59,49,38,3.24,HN,04/17/20
346,Mpika,-11.83,31.45,61.05,61,93,9.15,ZM,04/17/20
347,Sittwe,20.15,92.9,85.6,60,8,3.09,MM,04/17/20
348,Bulgan,48.81,103.53,48.24,28,19,11.95,MN,04/17/20
349,Shingū,33.73,135.98,62.6,67,75,14.99,JP,04/17/20
350,Porto Velho,-8.76,-63.9,77.0,94,20,2.21,BR,04/17/20
351,Pouébo,-20.4,164.57,81.01,66,100,5.35,NC,04/17/20
352,San Rafael,-34.62,-68.33,68.27,38,91,10.89,AR,04/17/20
353,Luba,3.46,8.55,82.2,77,92,5.44,GQ,04/17/20
354,Norman Wells,65.28,-126.83,39.2,60,90,2.24,CA,04/17/20
355,Saint Anthony,45.02,-93.22,44.6,30,1,5.82,US,04/17/20
356,Eagle Pass,28.71,-100.5,71.6,94,90,9.22,US,04/17/20
357,Tashtyp,52.79,89.9,42.44,54,41,9.86,RU,04/17/20
358,Mbigou,-1.9,11.91,67.51,82,100,1.45,GA,04/17/20
359,Pochutla,15.74,-96.47,82.99,78,22,3.74,MX,04/17/20
360,Anadyr,64.75,177.48,17.6,78,75,4.47,RU,04/17/20
361,Panama City,8.99,-79.52,79.0,70,0,1.01,PA,04/17/20
362,Tura,25.52,90.22,77.02,70,93,5.12,IN,04/17/20
363,Shakiso,5.75,38.92,57.9,59,99,3.0,ET,04/17/20
364,Valle Hermoso,25.67,-97.83,79.0,83,90,8.05,MX,04/17/20
365,Port Hedland,-20.32,118.57,98.6,35,100,5.82,AU,04/17/20
366,Namatanai,-3.67,152.43,83.17,73,98,7.63,PG,04/17/20
367,Rio Grande,-32.03,-52.1,52.0,96,0,8.34,BR,04/17/20
368,Kemijärvi,66.71,27.43,32.4,88,100,15.17,FI,04/17/20
369,Jiaozhou,36.28,120.0,63.0,48,0,6.71,CN,04/17/20
370,Redcliffe,-27.23,153.1,84.2,37,100,16.11,AU,04/17/20
371,Korla,41.76,86.15,63.27,33,86,9.51,CN,04/17/20
372,Rawson,-43.3,-65.1,76.03,44,55,20.49,AR,04/17/20
373,Fukuechō,32.69,128.84,60.8,67,20,12.75,JP,04/17/20
374,Chengde,40.97,117.94,62.98,26,100,1.3,CN,04/17/20
375,La Rioja,42.25,-2.5,50.0,93,75,1.43,ES,04/17/20
376,Hong Kong,22.29,114.16,80.01,69,100,10.0,HK,04/17/20
377,Filingué,14.35,3.32,78.33,14,44,5.57,NE,04/17/20
378,San Jose,37.34,-121.89,59.0,58,75,12.75,US,04/17/20
379,Mahon,39.89,4.27,59.0,100,100,8.05,ES,04/17/20
380,Chu,43.6,73.76,58.21,44,0,2.46,KZ,04/17/20
381,Tabou,4.42,-7.35,80.65,88,98,10.13,CI,04/17/20
382,Acapulco de Juárez,16.86,-99.89,78.8,78,5,2.39,MX,04/17/20
383,Show Low,34.25,-110.03,53.6,27,1,8.05,US,04/17/20
384,Severnoye,56.35,78.36,49.08,76,67,11.52,RU,04/17/20
385,Maragogi,-9.01,-35.22,79.65,81,88,2.93,BR,04/17/20
386,Faya,18.39,42.45,60.8,87,0,6.93,SA,04/17/20
387,Pringsewu,-5.36,104.97,88.54,59,10,2.73,ID,04/17/20
388,Zeya,53.75,127.27,36.86,49,5,7.09,RU,04/17/20
389,Cherskiy,68.75,161.3,10.63,91,49,9.82,RU,04/17/20
390,Vostok,46.49,135.88,48.42,51,100,2.21,RU,04/17/20
391,Kilindoni,-7.91,39.67,83.25,76,100,23.78,TZ,04/17/20
392,Bara,10.37,10.73,77.79,13,0,1.12,NG,04/17/20
393,Mossamedes,-15.2,12.15,73.78,71,81,5.99,AO,04/17/20
394,Kanigoro,-8.13,112.22,84.51,71,22,2.39,ID,04/17/20
395,Fene,43.45,-8.15,55.0,100,5,4.7,ES,04/17/20
396,Werda,-25.27,23.28,67.05,27,0,12.28,BW,04/17/20
397,Santa Cruz,30.42,-9.6,60.8,82,40,5.82,MA,04/17/20
398,Olginskaya,47.19,39.95,41.0,93,86,2.24,RU,04/17/20
399,Marzuq,14.4,46.47,72.21,50,91,5.23,YE,04/17/20
400,Puerto Colombia,10.99,-74.95,80.6,78,0,16.11,CO,04/17/20
401,Port Macquarie,-31.43,152.92,75.99,50,100,1.01,AU,04/17/20
402,Sulina,45.16,29.65,52.43,62,64,5.97,RO,04/17/20
403,Along,28.17,94.77,79.29,44,87,1.03,IN,04/17/20
404,Maceió,-9.67,-35.74,79.36,81,84,2.44,BR,04/17/20
405,Minas,-34.38,-55.24,60.01,100,1,4.7,UY,04/17/20
406,Luwuk,-0.95,122.79,86.88,65,87,1.36,ID,04/17/20
407,Knin,44.04,16.2,48.2,66,25,3.36,HR,04/17/20
408,Taltal,-25.4,-70.48,63.93,73,14,1.99,CL,04/17/20
409,Umluj,25.02,37.27,68.72,59,2,5.82,SA,04/17/20
410,Phra Phutthabat,14.73,100.8,95.0,48,81,7.47,TH,04/17/20
411,Tiznit Province,29.58,-9.5,55.06,66,0,0.49,MA,04/17/20
412,Ranong,9.97,98.63,84.2,79,97,3.36,TH,04/17/20
413,Udachny,66.42,112.4,6.8,55,19,4.47,RU,04/17/20
414,La Palma,33.85,-118.05,61.0,63,1,6.93,US,04/17/20
415,Ballina,-28.87,153.57,77.0,69,40,6.93,AU,04/17/20
416,Xining,36.62,101.77,55.56,16,0,2.82,CN,04/17/20
417,Lucea,18.45,-78.17,80.6,78,20,8.05,JM,04/17/20
418,Shimoda,34.67,138.95,63.0,93,75,34.45,JP,04/17/20
419,Nabire,-3.37,135.48,89.26,59,66,5.84,ID,04/17/20
420,Reyes,-14.32,-67.38,66.83,71,30,2.82,BO,04/17/20
421,Camacha,33.08,-16.33,59.0,77,20,6.93,PT,04/17/20
422,Tottori-shi,35.5,134.23,60.8,72,75,26.4,JP,04/17/20
423,Agadez,19.75,10.25,75.76,14,0,4.94,NE,04/17/20
424,Ponta do Sol,32.67,-17.1,55.99,68,12,4.0,PT,04/17/20
425,Médéa,36.26,2.75,62.6,93,75,4.7,DZ,04/17/20
426,Denpasar,-8.65,115.22,87.3,64,25,1.12,ID,04/17/20
427,Rome,43.21,-75.46,34.0,86,90,4.7,US,04/17/20
428,Pacifica,37.61,-122.49,55.99,66,75,14.99,US,04/17/20
429,Kumul,42.8,93.45,66.67,19,22,6.11,CN,04/17/20
430,Sigiriya,7.95,80.74,82.53,69,47,4.83,LK,04/17/20
431,Jiehu,35.54,118.45,65.26,37,45,9.4,CN,04/17/20
432,Chickasha,35.05,-97.94,42.8,81,1,6.93,US,04/17/20
433,Iqaluit,63.75,-68.51,6.8,84,75,4.7,CA,04/17/20
434,Balclutha,-46.23,169.75,55.0,80,91,20.0,NZ,04/17/20
435,Nkhotakota,-12.93,34.3,74.59,66,10,10.22,MW,04/17/20
436,Ixtapa,20.7,-105.2,75.2,78,5,3.27,MX,04/17/20
437,Smithers,54.78,-127.17,55.4,58,40,8.05,CA,04/17/20
438,Oodweyne,9.41,45.06,72.72,57,16,8.1,SO,04/17/20
439,Eyl,7.98,49.82,82.31,78,8,10.18,SO,04/17/20
440,Totness,5.88,-56.32,79.74,83,100,11.88,SR,04/17/20
441,Deputatsky,69.3,139.9,-2.02,82,9,3.06,RU,04/17/20
442,Montgomery,39.15,-77.2,50.0,81,90,5.82,US,04/17/20
443,Grand Forks,47.93,-97.03,43.0,56,40,11.41,US,04/17/20
444,Pecos,31.42,-103.49,57.2,46,1,8.05,US,04/17/20
445,Erzin,36.96,36.2,62.01,100,0,2.24,TR,04/17/20
446,Itacarambi,-15.1,-44.09,70.68,79,2,2.91,BR,04/17/20
447,Pandan,14.05,124.17,83.52,75,94,7.07,PH,04/17/20
448,Ongandjera,-17.88,15.07,74.44,35,52,6.33,NA,04/17/20
449,Zakamensk,50.37,103.29,40.84,41,58,9.22,RU,04/17/20
450,Siaya,0.06,34.29,63.54,64,100,6.85,KE,04/17/20
451,Houma,29.6,-90.72,73.99,94,1,4.7,US,04/17/20
452,Yangi Marg`ilon,40.43,71.72,60.8,58,30,2.24,UZ,04/17/20
453,Brigantine,39.41,-74.36,51.8,62,90,13.87,US,04/17/20
454,Atar,20.52,-13.05,69.31,29,4,4.54,MR,04/17/20
455,Boddam,57.47,-1.78,41.0,78,90,5.82,GB,04/17/20
456,Salalah,17.02,54.09,78.8,69,40,3.36,OM,04/17/20
457,Shakawe,-18.37,21.85,67.84,44,11,2.91,BW,04/17/20
458,‘Ewa Beach,21.32,-158.01,84.2,45,1,6.93,US,04/17/20
459,Banda Aceh,5.56,95.32,85.03,69,92,3.29,ID,04/17/20
460,Mareeba,-17.0,145.43,88.0,68,98,1.99,AU,04/17/20
461,Touros,-5.2,-35.46,77.0,94,20,8.28,BR,04/17/20
462,Mitsamiouli,-11.38,43.28,83.82,70,0,11.34,KM,04/17/20
463,Karratha,-20.74,116.85,92.41,35,74,4.29,AU,04/17/20
464,Taozhuang,34.85,117.33,65.35,39,91,8.66,CN,04/17/20
465,Beloha,-25.17,45.05,69.04,71,0,2.3,MG,04/17/20
466,Roald,62.58,6.13,34.0,92,4,5.82,NO,04/17/20
467,Ahmadpur East,29.14,71.26,75.16,57,37,13.91,PK,04/17/20
468,Amarante do Maranhão,-5.57,-46.74,72.01,91,100,2.73,BR,04/17/20
469,Lábrea,-7.26,-64.8,73.54,94,23,1.72,BR,04/17/20
470,Damāvand,35.72,52.06,51.8,66,20,2.01,IR,04/17/20
471,Khani,41.96,42.96,39.2,100,92,2.24,GE,04/17/20
472,Aguçadoura,41.43,-8.78,55.4,93,75,5.82,PT,04/17/20
473,La Santisima Trinidad,-14.83,-64.9,65.05,65,95,2.86,BO,04/17/20
474,Key West,24.56,-81.78,82.4,83,40,3.36,US,04/17/20
475,Kargopol',61.51,38.95,29.41,97,86,7.11,RU,04/17/20
476,Vanavara,60.34,102.28,27.73,87,86,8.23,RU,04/17/20
477,Sur,22.57,59.53,79.23,75,0,6.15,OM,04/17/20
478,Huangnihe,43.56,128.02,56.46,42,67,2.57,CN,04/17/20
479,Casay,9.82,123.55,89.6,66,40,11.41,PH,04/17/20
480,Chik,54.99,82.43,50.0,46,1,8.95,RU,04/17/20
481,Cabedelo,-6.98,-34.83,78.8,94,20,2.93,BR,04/17/20
482,Kununurra,-15.77,128.73,96.8,37,30,5.82,AU,04/17/20
483,São Filipe,14.9,-24.5,70.12,76,0,18.5,CV,04/17/20
484,Waukegan,42.36,-87.84,37.99,74,4,8.97,US,04/17/20
485,Tucupita,9.06,-62.05,72.88,87,13,4.52,VE,04/17/20
486,Tcholliré,8.4,14.17,79.93,17,16,2.24,CM,04/17/20
487,Porto Murtinho,-21.7,-57.88,62.35,49,30,4.63,BR,04/17/20
488,Savannah Bight,16.45,-85.85,81.86,79,0,26.75,HN,04/17/20
489,Lloret de Mar,41.7,2.85,57.99,93,100,3.36,ES,04/17/20
490,Martvili,42.41,42.38,39.2,100,100,2.24,GE,04/17/20
491,Gunjur,13.2,-16.73,71.6,83,17,9.17,GM,04/17/20
492,Sikasso,10.92,-7.0,83.01,18,16,5.01,ML,04/17/20
493,Turiaçu,-1.66,-45.37,75.07,94,100,2.04,BR,04/17/20
494,Sørland,67.67,12.69,38.82,94,100,16.13,NO,04/17/20
495,São Miguel do Araguaia,-13.28,-50.16,72.28,83,17,1.99,BR,04/17/20
496,Coos Bay,43.37,-124.22,54.0,81,1,13.87,US,04/17/20
497,Inírida,3.87,-67.92,75.11,79,84,1.36,CO,04/17/20
498,Honiara,-9.43,159.95,78.8,94,90,5.82,SB,04/17/20
499,Qaqortoq,60.72,-46.03,28.4,68,85,10.29,GL,04/17/20
500,Paraíso,9.84,-83.87,64.99,89,44,7.0,CR,04/17/20
501,Terrasini,38.15,13.08,57.0,87,37,5.3,IT,04/17/20
502,Jizan,17.33,42.67,84.2,70,9,3.36,SA,04/17/20
503,Cap Malheureux,-19.98,57.61,75.2,83,75,8.05,MU,04/17/20
504,Ingham,42.6,-84.38,34.0,90,90,5.35,US,04/17/20
505,Christchurch,-43.53,172.63,69.01,40,2,12.75,NZ,04/17/20
506,Rocha,-34.48,-54.33,56.98,91,0,4.68,UY,04/17/20
507,Petrovsk,52.31,45.39,34.39,82,26,12.1,RU,04/17/20
508,Mount Isa,-20.73,139.5,93.2,18,9,6.93,AU,04/17/20
509,George Town,5.41,100.34,89.6,79,20,4.7,MY,04/17/20
510,Bereda,43.27,-7.54,45.0,1,3,3.85,ES,04/17/20
511,Ilebo,-4.32,20.58,70.9,85,84,0.72,CD,04/17/20
512,Manitouwadge,49.12,-85.84,23.81,93,7,8.19,CA,04/17/20
513,Yueyang,29.33,113.09,58.24,92,100,6.93,CN,04/17/20
514,Malartic,48.13,-78.13,32.0,96,75,6.93,CA,04/17/20
515,Bitung,1.45,125.18,87.8,66,40,10.29,ID,04/17/20
516,Kuusamo,65.97,29.18,32.0,89,90,16.11,FI,04/17/20
517,Trairi,-3.28,-39.27,78.04,83,49,2.89,BR,04/17/20
518,Baturaja,-4.13,104.17,88.45,62,46,1.59,ID,04/17/20
519,Comodoro Rivadavia,-45.87,-67.5,66.2,55,77,11.41,AR,04/17/20
520,Hushitai,41.93,123.51,64.4,45,0,2.24,CN,04/17/20
521,Shache,38.42,77.24,52.95,53,100,5.53,CN,04/17/20
522,Sandwick,60.0,-1.25,39.2,62,0,4.7,GB,04/17/20
523,Calbuco,-41.77,-73.13,59.0,93,90,3.09,CL,04/17/20
524,Kholtoson,50.3,103.31,40.6,39,48,9.4,RU,04/17/20
525,Caher,52.38,-7.92,50.0,91,100,5.01,IE,04/17/20
526,Jacareacanga,-6.22,-57.75,73.06,94,65,2.39,BR,04/17/20
527,Halifax,44.65,-63.57,35.01,51,16,1.99,CA,04/17/20
528,Coahuayana Viejo,18.73,-103.68,75.74,55,47,2.98,MX,04/17/20
529,Suntar,62.14,117.63,17.92,85,100,6.8,RU,04/17/20
530,Bonavista,48.65,-53.11,28.0,76,73,7.0,CA,04/17/20
531,Namuac,18.61,121.17,87.1,60,52,3.33,PH,04/17/20
532,Srednekolymsk,67.45,153.68,5.32,92,100,13.04,RU,04/17/20
533,Kindu,-2.95,25.95,67.6,84,99,1.19,CD,04/17/20
534,Austin,30.27,-97.74,57.2,76,90,8.05,US,04/17/20
535,Natal,-5.79,-35.21,78.8,94,20,4.7,BR,04/17/20
536,Marystown,47.17,-55.15,31.06,90,43,12.46,CA,04/17/20
537,Şile,41.18,29.61,53.01,49,0,1.01,TR,04/17/20
538,Kishtwār,33.32,75.77,51.67,37,100,3.09,IN,04/17/20
539,Villeta,5.01,-74.47,53.6,76,63,2.24,CO,04/17/20
540,Mildura,-34.2,142.15,64.99,39,100,8.05,AU,04/17/20
541,Baruun-Urt,46.68,113.28,60.12,20,100,24.92,MN,04/17/20
542,Susanville,40.42,-120.65,59.0,38,90,8.05,US,04/17/20
543,Wellington,-41.29,174.78,64.4,63,9,20.8,NZ,04/17/20
544,Santo Niño,6.43,124.7,95.0,36,20,6.93,PH,04/17/20
545,Moyale,3.52,39.06,68.34,63,74,3.78,KE,04/17/20
546,Aykhal,66.0,111.5,6.8,55,19,4.47,RU,04/17/20
547,Senanga,-16.12,23.27,69.1,49,64,4.63,ZM,04/17/20
548,Timizart,36.8,4.27,63.3,72,100,1.81,DZ,04/17/20
549,Bethanien,-26.5,17.16,55.71,30,0,0.65,NA,04/17/20
550,Keti Bandar,24.14,67.45,81.72,73,0,10.8,PK,04/17/20
551,Imbituba,-28.24,-48.67,66.2,77,16,8.05,BR,04/17/20
552,Watford,51.66,-0.4,48.0,87,100,8.05,GB,04/17/20
553,Nioro,13.35,-15.75,73.6,34,0,11.54,GM,04/17/20
554,Vittorio Veneto,45.98,12.3,51.01,80,43,1.99,IT,04/17/20
555,Camaná,-16.62,-72.71,71.33,75,95,7.2,PE,04/17/20
556,Takoradze,4.88,-1.76,80.89,85,100,9.6,GH,04/17/20
557,Hastings,50.86,0.57,46.0,94,100,1.01,GB,04/17/20
558,Tabora,-5.02,32.8,63.52,65,69,6.22,TZ,04/17/20
559,Namikupa,-10.83,39.6,69.39,90,27,3.98,TZ,04/17/20
